,City,Cloudiness,Country,Date,Humidity,Latitude,Longitude,Max_Temp,Wind_Speed,date
0,abaete,68,BR,1553365573,71,-19.16,-45.45,27.24,2.77,1553365573
2,podgornoye,64,RU,1553365573,80,57.79,82.64,-2.06,0.87,1553365573
3,butaritari,68,KI,1553365484,100,3.07,172.79,27.44,4.02,1553365484
4,pangkalanbuun,36,ID,1553365431,89,-2.68,111.62,23.09,1.42,1553365431
6,abeche,32,TD,1553365574,21,13.83,20.83,30.09,2.77,1553365574
7,sao filipe,0,CV,1553365467,92,14.9,-24.5,22.19,6.82,1553365467
8,hilo,75,US,1553365453,77,19.71,-155.08,20.31,2.6,1553365453
9,puerto penasco,0,MX,1553364916,81,31.32,-113.53,17.78,3.13,1553364916
10,amapa,75,HN,1553364000,43,15.09,-87.97,31.0,5.1,1553364000
11,rikitea,32,PF,1553365458,98,-23.12,-134.97,26.29,8.47,1553365458
12,busselton,8,AU,1553365217,51,-33.64,115.35,10.39,5.92,1553365217
13,lengshuitan,88,CN,1553365575,99,26.41,111.6,8.79,1.62,1553365575
14,atuona,68,PF,1553365470,100,-9.8,-139.03,27.84,7.37,1553365470
16,victoria,75,BN,1553362200,94,5.28,115.24,26.81,2.1,1553362200
17,tiksi,48,RU,1553365385,68,71.64,128.87,-16.91,1.37,1553365385
18,springdale,90,US,1553365443,44,36.19,-94.13,14.86,2.6,1553365443
19,ushuaia,20,AR,1553360400,81,-54.81,-68.31,12.0,1.5,1553360400
20,lebu,40,ET,1553364000,30,8.96,38.73,21.0,3.1,1553364000
21,cockburn town,0,TC,1553365171,98,21.46,-71.14,26.44,4.57,1553365171
22,georgetown,75,GY,1553364000,46,6.8,-58.16,30.82,6.2,1553364000
23,kruisfontein,0,ZA,1553365356,83,-34.0,24.73,21.29,4.37,1553365356
24,farafangana,76,MG,1553365577,100,-22.82,47.83,24.24,3.22,1553365577
25,wilmington,1,US,1553365442,33,39.75,-75.55,8.32,10.8,1553365442
26,benguela,36,AO,1553365577,96,-12.58,13.4,27.84,1.57,1553365577
27,nikolskoye,90,RU,1553365485,86,59.7,30.79,2.97,4.0,1553365485
28,khatanga,0,RU,1553365294,48,71.98,102.47,-26.91,1.42,1553365294
29,nuuk,75,GL,1553363400,40,64.17,-51.74,-8.0,7.2,1553363400
30,ebebiyin,80,GQ,1553365578,95,2.15,11.34,23.14,1.17,1553365578
31,nanortalik,24,GL,1553365537,100,60.14,-45.24,-4.91,7.92,1553365537
32,barrow,0,AR,1553365478,48,-38.31,-60.23,26.34,9.57,1553365478
33,marsa matruh,40,EG,1553360400,63,31.35,27.25,18.0,6.7,1553360400
34,albany,40,US,1553365276,50,42.65,-73.75,0.75,11.8,1553365276
35,talnakh,68,RU,1553365527,66,69.49,88.39,-16.51,2.42,1553365527
36,tilichiki,0,RU,1553365526,41,60.47,166.1,-25.61,1.32,1553365526
37,kamenka,64,RU,1553364663,73,53.19,44.05,2.78,4.07,1553364663
38,peleduy,44,RU,1553365579,60,59.63,112.75,-11.36,3.57,1553365579
39,linqu,0,CN,1553365184,46,36.52,118.54,5.0,1.72,1553365184
40,kahului,20,US,1553365347,60,20.89,-156.47,21.49,5.1,1553365347
41,cayenne,75,GF,1553364000,62,4.94,-52.33,31.0,6.2,1553364000
42,hermanus,64,ZA,1553364960,84,-34.42,19.24,21.98,1.62,1553364960
43,punta arenas,20,CL,1553364798,71,-53.16,-70.91,12.93,3.6,1553364798
44,khovu-aksy,0,RU,1553365580,64,51.13,93.72,-13.66,1.47,1553365580
47,lorengau,88,PG,1553365580,99,-2.02,147.27,28.04,5.57,1553365580
48,doha,0,QA,1553362200,73,25.29,51.53,22.0,5.7,1553362200
49,klaksvik,92,FO,1553363400,80,62.23,-6.59,4.0,9.3,1553363400
50,tabas,0,IR,1553360400,47,33.6,56.92,17.0,2.1,1553360400
51,cidreira,12,BR,1553365392,85,-30.17,-50.22,23.59,2.42,1553365392
52,petersburg,1,US,1553365405,22,37.23,-77.4,14.03,4.1,1553365405
53,ixtapa,5,MX,1553365508,42,20.71,-105.21,28.07,2.6,1553365508
54,camacha,75,PT,1553362200,67,33.08,-16.33,17.58,6.2,1553362200
55,kudahuvadhoo,8,MV,1553365582,99,2.67,72.89,29.59,4.62,1553365582
56,bethel,90,US,1553363760,80,60.79,-161.76,2.0,3.6,1553363760
57,bredasdorp,8,ZA,1553364960,88,-34.53,20.04,21.41,1.5,1553364960
58,new norfolk,75,AU,1553365396,68,-42.78,147.06,16.83,3.6,1553365396
59,caravelas,92,BR,1553365510,100,-17.73,-39.27,26.69,9.62,1553365510
60,rawson,68,AR,1553365429,45,-43.3,-65.11,18.94,10.77,1553365429
61,richards bay,48,ZA,1553365582,93,-28.77,32.06,22.24,3.42,1553365582
62,seoul,1,KR,1553363760,74,37.57,126.98,-0.26,1.0,1553363760
63,tuktoyaktuk,90,CA,1553364000,71,69.44,-133.03,-13.0,10.3,1553364000
64,luderitz,8,NA,1553365544,82,-26.65,15.16,17.49,5.27,1553365544
66,aloleng,12,PH,1553365583,90,16.13,119.78,25.69,5.22,1553365583
67,kempsey,36,AU,1553365505,96,-31.08,152.84,20.88,0.89,1553365505
68,mana,0,RS,1553364000,47,43.52,20.24,10.39,2.1,1553364000
69,tasiilaq,20,GL,1553363400,56,65.61,-37.64,-9.0,6.7,1553363400
71,robertsport,12,LR,1553365584,98,6.75,-11.37,28.44,4.57,1553365584
72,yellowknife,20,CA,1553365009,54,62.45,-114.38,-15.39,4.1,1553365009
73,mataura,64,NZ,1553365206,90,-46.19,168.86,13.33,1.22,1553365206
75,san ignacio,0,CL,1553364000,39,-36.8,-72.03,26.0,9.8,1553364000
76,fort saint james,88,CA,1553365585,93,54.43,-124.25,2.04,1.32,1553365585
77,ust-ilimsk,76,RU,1553365586,79,57.96,102.73,-4.56,2.82,1553365586
78,fortuna,20,ES,1553365419,51,38.18,-1.13,14.82,2.6,1553365419
79,baykit,88,RU,1553365586,79,61.68,96.39,-6.11,1.07,1553365586
80,severo-kurilsk,80,RU,1553365489,96,50.68,156.12,-1.06,8.32,1553365489
81,avarua,80,CK,1553362200,94,-21.21,-159.78,24.0,0.5,1553362200
82,haradok,8,BY,1553365586,60,55.46,29.99,2.29,3.87,1553365586
84,salym,92,RU,1553365587,95,60.06,71.48,-0.46,0.57,1553365587
85,lagoa,0,PT,1553365329,59,37.14,-8.45,18.26,4.6,1553365329
86,upernavik,24,GL,1553365465,100,72.79,-56.15,-21.06,4.32,1553365465
87,kutum,36,SD,1553365396,41,14.2,24.66,24.99,1.32,1553365396
88,port alfred,0,ZA,1553365210,92,-33.59,26.89,22.52,0.89,1553365210
89,maceio,20,BR,1553364000,59,-9.67,-35.74,32.0,6.2,1553364000
91,hobart,75,AU,1553365274,68,-42.88,147.33,16.82,3.6,1553365274
92,guerrero negro,0,MX,1553365302,63,27.97,-114.04,20.14,2.17,1553365302
93,kanniyakumari,0,IN,1553365588,98,8.08,77.57,29.44,2.37,1553365588
96,petatlan,5,MX,1553363040,55,17.52,-101.27,30.0,5.1,1553363040
97,lapua,24,FI,1553365484,64,62.97,23.01,3.62,3.6,1553365484
98,vaini,0,IN,1553365293,85,15.34,74.49,21.09,1.37,1553365293
99,fasa,20,IR,1553360400,87,28.94,53.65,11.0,0.97,1553360400
101,minas,75,UY,1553364000,44,-34.38,-55.24,25.0,4.1,1553364000
102,qaanaaq,8,GL,1553365457,61,77.48,-69.36,-29.76,4.47,1553365457
104,pleszew,8,PL,1553365562,64,51.9,17.79,14.48,3.13,1553365562
105,lasa,20,CY,1553364956,87,34.92,32.53,13.1,2.1,1553364956
106,luganville,92,VU,1553365571,100,-15.51,167.18,24.24,1.32,1553365571
107,the pas,90,CA,1553364000,69,53.82,-101.24,2.0,3.6,1553364000
108,qaqortoq,75,GL,1553363400,44,60.72,-46.03,-7.0,1.5,1553363400
109,mar del plata,56,AR,1553365493,72,-46.43,-67.52,14.69,6.47,1553365493
110,arraial do cabo,40,BR,1553364000,65,-22.97,-42.02,27.36,4.6,1553364000
111,chokurdakh,56,RU,1553365332,50,70.62,147.9,-27.51,1.42,1553365332
113,plettenberg bay,12,ZA,1553365591,93,-34.05,23.37,21.24,2.77,1553365591
114,shibetsu,68,JP,1553365591,74,44.15,142.46,-10.56,1.67,1553365591
115,thompson,20,CA,1553364000,48,55.74,-97.86,-8.0,6.7,1553364000
116,katsuura,40,JP,1553360400,93,33.93,134.5,3.0,2.6,1553360400
117,ilulissat,75,GL,1553363400,39,69.22,-51.1,-21.0,5.7,1553363400
118,mount gambier,90,AU,1553363400,100,-37.83,140.78,15.0,1.5,1553363400
119,batemans bay,24,AU,1553365503,87,-35.71,150.18,15.52,1.27,1553365503
120,boves,90,FR,1553365560,87,49.85,2.39,9.9,4.6,1553365560
121,san cristobal,75,EC,1553364975,49,-0.39,-78.55,18.93,5.7,1553364975
123,pevek,0,RU,1553365305,35,69.7,170.27,-30.91,1.52,1553365305
124,kargil,8,PK,1553365593,84,34.56,76.13,-15.26,0.52,1553365593
125,nome,1,US,1553365426,41,30.04,-94.42,23.49,6.2,1553365426
126,ankara,0,TR,1553365478,35,39.92,32.85,5.1,4.1,1553365478
127,carnduff,0,CA,1553365594,94,49.17,-101.8,2.09,1.32,1553365594
128,east london,0,ZA,1553364000,83,-33.02,27.91,24.0,6.2,1553364000
129,atar,0,MR,1553365594,27,20.52,-13.05,27.49,4.62,1553365594
130,vestmannaeyjar,75,IS,1553364000,93,63.44,-20.27,3.0,11.8,1553364000
131,nerchinskiy zavod,0,RU,1553365594,66,51.31,119.61,-9.91,2.32,1553365594
132,berlevag,12,NO,1553365458,100,70.86,29.09,-0.91,3.02,1553365458
134,mporokoso,64,ZM,1553365595,100,-9.37,30.12,18.59,1.67,1553365595
136,pisco,0,PE,1553364000,30,-13.71,-76.2,22.0,4.6,1553364000
137,ambositra,92,MG,1553365595,99,-20.53,47.24,16.09,0.62,1553365595
138,havoysund,12,NO,1553365200,69,71.0,24.66,2.0,2.6,1553365200
139,eenhana,36,NA,1553365596,33,-17.48,16.34,28.64,3.12,1553365596
140,vardo,1,US,1553365581,31,39.62,-77.74,8.32,7.7,1553365581
141,yenotayevka,92,RU,1553365596,89,47.24,47.04,5.09,3.97,1553365596
142,bubaque,8,GW,1553365516,80,11.28,-15.83,28.99,2.62,1553365516
143,santa lucia,20,IT,1553365201,59,39.93,9.66,14.39,2.1,1553365201
144,morondava,20,MG,1553365375,77,-20.3,44.28,29.59,2.57,1553365375
145,nishihara,20,JP,1553365530,38,35.74,139.53,2.29,2.6,1553365530
146,puerto ayora,20,EC,1553364955,70,-0.74,-90.35,27.93,5.1,1553364955
147,cherskiy,12,RU,1553365317,22,68.75,161.3,-25.91,0.97,1553365317
148,jamestown,92,AU,1553365470,93,-33.21,138.6,17.34,3.47,1553365470
149,kodiak,90,US,1553365412,29,39.95,-94.76,11.07,5.1,1553365412
150,sonqor,75,IR,1553362200,37,34.78,47.6,12.0,2.1,1553362200
151,pangnirtung,90,CA,1553364000,70,66.15,-65.72,-17.0,7.7,1553364000
152,cape town,0,ZA,1553365220,82,-33.93,18.42,20.78,4.1,1553365220
153,alofi,48,NU,1553360400,83,-19.06,-169.92,23.0,2.6,1553360400
154,erenhot,0,CN,1553365599,66,43.65,111.97,-1.06,6.92,1553365599
155,gorontalo,24,ID,1553365599,95,0.54,123.06,22.29,0.97,1553365599
156,longyearbyen,20,NO,1553363400,67,78.22,15.63,-6.0,7.2,1553363400
157,mahibadhoo,0,MV,1553365599,99,3.78,72.97,29.79,4.52,1553365599
158,monte alegre,76,BR,1553365599,81,-2.0,-54.07,28.39,1.52,1553365599
159,college,40,US,1553365332,59,64.86,-147.8,1.19,2.1,1553365332
160,castro,75,CL,1553364000,67,-42.48,-73.76,15.0,2.6,1553364000
161,sudak,76,UA,1553365600,100,44.85,34.97,2.14,4.37,1553365600
162,haines junction,24,CA,1553365600,76,60.75,-137.51,0.54,1.22,1553365600
163,savannah bight,36,HN,1553365574,98,16.45,-85.85,25.74,3.02,1553365574
164,luwuk,44,ID,1553365600,97,-0.95,122.79,26.34,1.42,1553365600
165,fort nelson,75,CA,1553364000,69,58.81,-122.69,3.0,3.1,1553364000
166,narsaq,75,GL,1553363400,44,60.91,-46.05,-7.0,1.5,1553363400
167,honiara,88,SB,1553365601,100,-9.43,159.96,23.44,0.72,1553365601
168,kusa,24,RU,1553365601,86,55.34,59.45,-4.76,1.17,1553365601
169,flinders,32,AU,1553365342,77,-34.58,150.85,20.89,1.17,1553365342
170,szczytno,0,PL,1553364000,71,53.57,20.99,11.0,3.6,1553364000
171,hoa binh,75,VN,1553362200,68,20.81,105.34,18.0,4.1,1553362200
172,waipawa,0,NZ,1553365336,94,-39.94,176.59,10.56,1.17,1553365336
173,north platte,90,US,1553365233,87,41.12,-100.77,6.67,6.2,1553365233
175,puerto escondido,5,MX,1553363100,66,15.86,-97.07,30.0,4.1,1553363100
176,vikhorevka,64,RU,1553365396,73,56.12,101.17,-6.6,3.0,1553365396
177,general pico,0,AR,1553365603,46,-35.66,-63.75,28.69,4.92,1553365603
178,laguna,5,MX,1553363220,28,27.52,-110.01,23.0,3.1,1553363220
179,bambous virieux,75,MU,1553365440,83,-20.34,57.76,26.16,4.6,1553365440
180,esmeraldas,75,BR,1553364000,64,-19.76,-44.31,25.1,2.6,1553364000
181,dubbo,0,AU,1553362200,69,-32.25,148.6,23.0,4.1,1553362200
182,kaitangata,80,NZ,1553365307,91,-46.28,169.85,13.54,1.77,1553365307
183,samarai,92,PG,1553365463,100,-10.62,150.67,24.34,4.37,1553365463
185,dicabisagan,24,PH,1553365406,100,17.08,122.42,20.94,3.27,1553365406
186,shakiso,0,ET,1553365605,30,5.77,38.9,20.59,2.17,1553365605
187,vanimo,56,PG,1553365386,98,-2.67,141.3,28.39,7.47,1553365386
190,point fortin,40,TT,1553364970,48,10.16,-61.68,30.9,8.2,1553364970
191,matola,20,MZ,1553364000,78,-25.97,32.47,26.0,2.6,1553364000
192,port elizabeth,1,US,1553365511,31,39.31,-74.98,8.97,9.3,1553365511
193,sao joao da barra,75,BR,1553360400,65,-21.64,-41.05,28.0,2.1,1553360400
194,lao cai,64,VN,1553365606,94,22.48,103.95,13.84,0.82,1553365606
195,hualmay,20,PE,1553365556,72,-11.1,-77.61,24.84,1.87,1553365556
196,kiunga,80,PG,1553365606,97,-6.12,141.3,22.19,1.52,1553365606
197,ponta delgada,75,PT,1553365253,76,37.73,-25.67,13.38,14.9,1553365253
198,vila franca do campo,40,PT,1553365493,71,37.72,-25.43,13.35,13.9,1553365493
199,ust-maya,12,RU,1553365607,71,60.42,134.54,-24.01,1.47,1553365607
200,kharela,0,IN,1553365607,37,25.55,79.82,19.34,1.57,1553365607
202,norman wells,75,CA,1553364000,68,65.28,-126.83,-3.0,11.3,1553364000
203,russell,0,AR,1553364000,36,-33.01,-68.8,27.0,2.6,1553364000
204,dikson,68,RU,1553365474,91,73.51,80.55,-9.41,9.62,1553365474
205,faanui,44,PF,1553365366,100,-16.48,-151.75,28.59,4.57,1553365366
206,levelland,40,US,1553365350,24,33.59,-102.38,18.04,6.7,1553365350
207,mopipi,0,BW,1553365608,29,-21.2,24.86,29.14,6.17,1553365608
208,xunchang,92,CN,1553365609,85,28.45,104.71,7.94,1.12,1553365609
209,tuatapere,76,NZ,1553365206,90,-46.13,167.69,13.33,3.02,1553365206
210,horconcitos,0,PA,1553365609,51,8.47,-81.8,28.59,2.42,1553365609
211,rio grande,40,BR,1553360400,47,-32.03,-52.1,26.0,6.2,1553360400
212,komsomolskiy,80,RU,1553365472,88,67.55,63.78,-5.21,5.22,1553365472
213,jangipur,0,IN,1553365609,37,24.46,88.11,20.44,4.02,1553365609
214,mingaora,36,PK,1553365569,89,34.78,72.36,5.94,0.77,1553365569
215,deputatskiy,0,RU,1553365396,0,69.3,139.9,-35.21,1.17,1553365396
216,gat,20,SN,1553364000,60,14.69,-16.54,23.0,7.2,1553364000
217,mount isa,68,AU,1553362200,74,-20.73,139.49,26.0,4.6,1553362200
218,manta,0,RO,1553365610,54,45.1,24.1,7.94,2.12,1553365610
219,makakilo city,90,US,1553365509,69,21.35,-158.09,21.37,2.1,1553365509
221,bluff,0,AU,1553365455,89,-23.58,149.07,21.24,1.67,1553365455
222,touros,40,BR,1553364000,74,-5.2,-35.46,30.0,3.1,1553364000
223,henties bay,0,NA,1553364128,88,-22.12,14.28,17.22,4.02,1553364128
224,evensk,0,RU,1553365483,93,61.92,159.24,-7.76,8.52,1553365483
225,ginda,20,IN,1553365583,61,30.69,78.49,5.69,1.32,1553365583
226,hami,0,CN,1553365575,50,42.84,93.51,1.84,3.42,1553365575
227,tura,0,IN,1553365563,57,25.52,90.21,17.34,1.72,1553365563
229,grand gaube,75,MU,1553365140,83,-20.01,57.66,26.27,4.6,1553365140
230,malibu,40,US,1553365591,19,33.61,-84.48,19.07,1.5,1553365591
231,naze,75,NG,1553364000,74,5.43,7.07,30.0,2.6,1553364000
232,ostrovnoy,8,RU,1553365612,87,68.05,39.51,-1.51,11.77,1553365612
233,labuhan,8,ID,1553365557,96,-2.54,115.51,22.69,0.87,1553365557
234,tiznit,76,MA,1553365375,89,29.7,-9.73,17.29,2.62,1553365375
235,saskylakh,0,RU,1553365389,33,71.97,114.09,-30.56,1.52,1553365389
236,birjand,75,IR,1553360400,62,32.86,59.22,11.0,9.8,1553360400
237,zeya,76,RU,1553365613,68,53.74,127.27,-13.16,0.92,1553365613
238,oleksandrivka,56,UA,1553365614,64,48.97,32.24,4.24,6.12,1553365614
239,tondano,20,ID,1553364000,94,1.3,124.91,23.0,1.0,1553364000
240,san cosme y damian,0,PY,1553364000,54,-27.32,-56.35,28.0,4.1,1553364000
242,kapaa,75,US,1553365093,73,22.08,-159.32,22.18,8.7,1553365093
243,jardim,0,BR,1553365615,76,-21.48,-56.15,29.74,2.02,1553365615
244,renukut,0,IN,1553365616,50,24.22,83.04,17.94,2.12,1553365616
246,okato,0,NZ,1553365222,97,-39.19,173.88,13.33,0.45,1553365222
247,karratha,92,AU,1553365616,58,-20.74,116.85,28.09,17.17,1553365616
249,coihaique,20,CL,1553364000,51,-45.58,-72.07,16.0,3.1,1553364000
250,bukachacha,0,RU,1553365617,53,52.99,116.91,-9.31,2.42,1553365617
251,puerto narino,75,CO,1553364000,88,-3.77,-70.38,28.0,3.6,1553364000
252,virginia beach,1,US,1553365324,24,36.85,-75.98,13.64,5.7,1553365324
253,lichtenburg,12,ZA,1553365617,53,-26.15,26.16,20.09,3.47,1553365617
254,vught,90,NL,1553365615,76,51.66,5.29,9.23,3.6,1553365615
255,ranong,0,TH,1553365618,100,9.96,98.62,28.09,2.92,1553365618
256,ribeira grande,40,PT,1553364000,58,38.52,-28.7,14.0,3.1,1553364000
257,dabat,44,ET,1553365618,39,12.98,37.77,20.49,0.52,1553365618
258,port hardy,75,CA,1553364000,71,50.7,-127.42,10.0,4.6,1553364000
259,alaca,64,TR,1553365483,65,40.17,34.84,3.09,3.57,1553365483
260,ananas,8,HT,1553365619,89,19.25,-71.96,25.74,1.57,1553365619
261,bacolod,0,PH,1553365619,85,10.68,122.95,23.84,3.87,1553365619
262,kungurtug,0,RU,1553365493,64,50.6,97.53,-15.71,1.67,1553365493
264,san quintin,0,PH,1553365401,84,17.54,120.52,17.84,1.82,1553365401
265,airai,32,TL,1553365486,88,-8.93,125.41,21.24,0.72,1553365486
266,saint george,20,GR,1553363400,62,39.45,22.34,11.53,2.1,1553363400
267,sonari,100,IN,1553365620,100,27.03,95.02,16.09,1.67,1553365620
268,cooma,92,AU,1553360400,93,-36.24,149.13,14.0,2.1,1553360400
269,arvi,0,IN,1553365620,37,21.0,78.23,22.94,3.67,1553365620
270,dunedin,68,NZ,1553365227,88,-45.87,170.5,14.44,1.42,1553365227
271,takoradi,24,GH,1553365569,94,4.89,-1.75,28.89,3.57,1553365569
272,archdale,1,US,1553365611,19,35.91,-79.97,15.0,3.1,1553365611
273,sayyan,24,YE,1553365577,54,15.17,44.32,15.04,1.27,1553365577
274,chernyshkovskiy,80,RU,1553365621,71,48.42,42.23,2.24,4.47,1553365621
275,aktau,0,KZ,1553362200,80,43.65,51.16,5.0,3.0,1553362200
276,novopskov,92,UA,1553365544,94,49.54,39.1,0.69,7.02,1553365544
278,manakara,92,MG,1553365622,100,-22.14,48.01,22.99,2.82,1553365622
279,ligayan,0,PH,1553365622,100,4.65,119.47,27.39,2.97,1553365622
280,paamiut,0,GL,1553365622,100,61.99,-49.67,-6.86,5.42,1553365622
281,te anau,92,NZ,1553365473,87,-45.41,167.72,10.49,1.37,1553365473
283,ararat,32,AU,1553364943,83,-37.28,142.93,13.89,1.37,1553364943
284,broome,0,GB,1553365608,61,52.47,1.45,7.77,2.1,1553365608
285,watertown,1,US,1553365311,80,44.9,-97.12,6.9,6.7,1553365311
286,torbay,75,CA,1553365420,71,47.66,-52.73,9.84,9.8,1553365420
287,doctor arroyo,0,MX,1553365623,50,23.67,-100.18,20.94,1.62,1553365623
288,sitka,12,US,1553364980,69,37.17,-99.65,14.44,2.24,1553364980
289,wangqing,0,CN,1553365624,58,43.31,129.76,-8.61,2.07,1553365624
290,sheridan,75,US,1553365481,75,39.65,-105.03,8.27,3.6,1553365481
291,bara,32,NG,1553365624,35,10.41,10.6,33.69,1.42,1553365624
292,iqaluit,90,CA,1553365371,77,63.75,-68.52,-15.0,12.3,1553365371
293,lucea,20,JM,1553364990,66,18.44,-78.17,28.94,10.3,1553364990
294,lavrentiya,92,RU,1553365278,100,65.58,-170.99,-9.91,4.47,1553365278
295,tado,12,ID,1553365625,96,-8.75,120.47,27.74,5.27,1553365625
296,olinda,75,EC,1553365491,79,-2.03,-79.75,28.34,3.1,1553365491
297,sao miguel do araguaia,32,BR,1553365625,100,-13.28,-50.16,27.94,1.87,1553365625
298,orangeburg,1,US,1553365574,23,33.49,-80.86,18.27,2.57,1553365574
299,sibolga,56,ID,1553365626,100,1.74,98.78,20.84,0.42,1553365626
300,carnarvon,92,ZA,1553365308,16,-30.97,22.13,25.94,3.32,1553365308
301,lokosovo,88,RU,1553365626,93,61.13,74.84,-0.86,2.42,1553365626
302,marsberg,90,DE,1553365475,87,51.45,8.86,9.34,1.5,1553365475
304,kavieng,44,PG,1553365514,100,-2.57,150.8,28.69,4.57,1553365514
305,esperance,40,TT,1553364970,48,10.24,-61.45,30.89,8.2,1553364970
306,srednekolymsk,0,RU,1553365627,53,67.46,153.71,-20.46,1.07,1553365627
308,vila velha,75,BR,1553364761,78,-3.71,-38.6,27.88,4.6,1553364761
309,frontera,75,MX,1553362860,61,18.53,-92.64,28.0,2.1,1553362860
310,portland,75,US,1553365509,81,45.52,-122.67,10.64,3.1,1553365509
311,oga,20,NG,1553365628,42,8.18,5.65,32.14,2.42,1553365628
312,san patricio,0,PY,1553365364,55,-26.98,-56.83,27.59,1.47,1553365364
313,karia,32,NG,1553365628,37,11.73,11.16,32.29,1.87,1553365628
314,sarkand,0,KZ,1553365629,79,45.41,79.91,3.74,1.82,1553365629
315,lakhimpur,92,IN,1553365629,97,27.24,94.1,16.69,2.17,1553365629
316,provideniya,92,RU,1553365422,100,64.42,-173.23,-9.41,5.47,1553365422
317,hasaki,20,JP,1553364889,92,35.73,140.83,-1.32,1.0,1553364889
318,zhangye,44,CN,1553365629,58,38.94,100.46,-1.51,2.62,1553365629
319,port keats,76,AU,1553365630,78,-14.25,129.55,30.59,7.52,1553365630
320,chuy,20,UY,1553365329,83,-33.69,-53.46,23.84,3.27,1553365329
321,jinchang,8,CN,1553365630,51,38.52,102.19,-8.21,1.42,1553365630
322,constitucion,0,MX,1553365217,19,23.99,-104.67,18.89,1.97,1553365217
323,mezen,92,RU,1553365630,81,65.85,44.24,0.84,6.37,1553365630
325,karasjok,0,NO,1553365200,69,69.47,25.52,1.0,4.6,1553365200
326,hamilton,75,BM,1553365118,68,32.3,-64.78,21.27,9.8,1553365118
327,nemuro,0,JP,1553365576,100,43.32,145.57,-2.71,4.87,1553365576
328,sur,12,OM,1553365584,84,22.57,59.53,24.24,3.02,1553365584
329,acapulco,5,MX,1553359980,45,16.86,-99.88,31.0,3.1,1553359980
330,geraldton,5,CA,1553364000,17,49.72,-86.95,8.0,7.2,1553364000
331,aklavik,75,CA,1553364000,67,68.22,-135.01,-8.0,9.3,1553364000
332,leningradskiy,80,RU,1553365556,79,69.38,178.42,-22.26,9.07,1553365556
333,roald,40,NO,1553365503,56,62.58,6.12,2.03,13.4,1553365503
334,altamont,1,CA,1553365227,70,49.4,-98.5,7.48,2.1,1553365227
335,freeport,0,BS,1553360400,44,26.54,-78.7,26.0,3.6,1553360400
336,rheda-wiedenbruck,90,DE,1553365625,87,51.85,8.3,10.05,1.5,1553365625
337,sept-iles,75,CA,1553365409,68,50.2,-66.38,-0.32,4.6,1553365409
338,aitape,32,PG,1553365633,94,-3.15,142.36,26.89,4.57,1553365633
339,along,76,IN,1553365633,95,28.17,94.8,11.74,0.77,1553365633
340,masunga,0,BW,1553364000,53,-20.62,27.45,23.0,3.1,1553364000
341,ponta do sol,36,BR,1553365474,79,-20.63,-46.0,25.49,2.32,1553365474
342,metapan,0,SV,1553365634,40,14.33,-89.45,27.84,1.97,1553365634
343,buala,48,SB,1553365634,100,-8.15,159.59,26.09,2.32,1553365634
344,primorsk,88,RU,1553365622,10,60.37,28.62,1.15,5.57,1553365622
345,mayaky,0,UA,1553365634,43,47.44,29.56,5.49,4.97,1553365634
346,fonte boa,12,BR,1553365635,58,-2.51,-66.09,33.74,1.32,1553365635
347,bazarnyye mataki,0,RU,1553365635,93,54.9,49.93,-3.56,1.27,1553365635
348,port lincoln,80,AU,1553365488,100,-34.72,135.86,16.74,1.62,1553365488
349,sinnamary,92,GF,1553365557,87,5.38,-52.96,27.99,5.07,1553365557
350,lata,20,IN,1553365515,61,30.78,78.62,5.69,1.32,1553365515
351,lourdes,0,SV,1553365550,32,13.73,-89.37,31.01,5.1,1553365550
352,lingao,92,CN,1553365636,99,19.91,109.69,21.94,4.77,1553365636
353,abha,40,SA,1553360400,63,18.22,42.5,18.53,4.1,1553360400
354,saint-augustin,0,FR,1553365545,30,44.83,-0.61,18.41,3.1,1553365545
355,yukhnov,0,RU,1553365636,79,54.74,35.23,-4.31,1.22,1553365636
356,karaidel,56,RU,1553365637,87,55.83,56.91,-0.26,1.37,1553365637
357,batabano,20,CU,1553365391,41,22.72,-82.29,25.83,1.5,1553365391
358,lakkion,0,GR,1553363400,55,37.13,26.85,16.53,8.37,1553363400
359,ojinaga,1,US,1553364942,13,29.56,-104.41,22.9,2.6,1553364942
360,chernyshevskiy,68,RU,1553365358,56,63.01,112.47,-14.71,3.67,1553365358
361,mwinilunga,44,ZM,1553365638,61,-11.73,24.43,22.64,2.02,1553365638
362,zaykovo,24,RU,1553365638,68,57.56,62.76,-6.41,1.22,1553365638
363,kotka,90,FI,1553365278,100,60.47,26.95,1.8,5.1,1553365278
364,strezhevoy,0,RU,1553362200,86,60.73,77.6,-2.0,2.0,1553362200
365,kaeo,0,NZ,1553364484,95,-35.1,173.78,13.33,1.27,1553364484
367,eyl,100,SO,1553365639,95,7.98,49.82,26.69,5.42,1553365639
368,batticaloa,0,LK,1553365420,100,7.71,81.69,26.19,2.52,1553365420
369,ulladulla,8,AU,1553364967,77,-35.36,150.48,19.13,3.52,1553364967
370,dongdu,0,CN,1553365639,57,35.85,117.7,-4.31,1.32,1553365639
371,clyde river,75,CA,1553364000,75,70.47,-68.59,-27.0,7.2,1553364000
372,gazli,80,UZ,1553365640,88,40.13,63.45,8.84,2.42,1553365640
373,salalah,40,OM,1553359800,74,17.01,54.1,27.0,4.6,1553359800
374,nipawin,1,CA,1553364000,89,53.36,-104.02,5.0,4.6,1553364000
375,slave lake,1,CA,1553364000,45,55.28,-114.77,9.0,4.1,1553364000
376,wajima,88,JP,1553365640,100,37.4,136.9,4.59,7.62,1553365640
377,kremsmunster,0,AT,1553365634,44,48.05,14.13,11.53,2.1,1553365634
378,pinhao,0,BR,1553365446,62,-25.7,-51.66,24.29,1.37,1553365446
380,olga,90,US,1553365640,63,34.11,-118.17,15.61,1.22,1553365640
381,cabedelo,40,BR,1553360400,62,-6.97,-34.84,32.0,4.6,1553360400
382,port blair,0,IN,1553365378,100,11.67,92.75,28.44,2.12,1553365378
383,benesat,0,RO,1553364000,34,47.41,23.29,8.93,2.6,1553364000
384,hirara,68,JP,1553365642,100,24.8,125.28,20.29,10.62,1553365642
385,derzhavinsk,68,KZ,1553365642,89,51.1,66.31,-0.96,1.37,1553365642
386,bursa,40,TR,1553363400,33,40.18,29.07,7.14,4.6,1553363400
388,miguel auza,0,MX,1553365430,24,24.29,-103.45,20.24,1.52,1553365430
390,guarapari,75,BR,1553365183,58,-20.67,-40.5,28.73,6.2,1553365183
391,mahebourg,75,MU,1553365440,83,-20.41,57.7,26.14,4.6,1553365440
392,killybegs,75,IE,1553365625,75,54.63,-8.45,7.4,4.6,1553365625
393,kupang,32,ID,1553365529,93,-10.16,123.6,27.84,4.82,1553365529
394,bismarck,1,US,1553365417,93,46.81,-100.78,6.68,5.7,1553365417
395,port hedland,75,AU,1553364120,100,-20.31,118.58,27.0,17.5,1553364120
396,saint-pierre,0,FR,1553365324,81,48.95,4.24,8.96,4.1,1553365324
397,champerico,5,MX,1553363160,40,16.38,-93.6,30.0,3.1,1553363160
398,estelle,90,US,1553365641,77,32.87,-97.01,18.61,6.7,1553365641
399,algiers,75,US,1553365643,43,29.94,-90.04,23.17,2.52,1553365643
400,hithadhoo,68,MV,1553365487,100,-0.6,73.08,30.49,3.27,1553365487
401,aksu,40,KZ,1553362200,100,52.04,76.93,-2.0,1.0,1553362200
402,vostok,0,RU,1553365335,67,46.45,135.83,-14.26,1.12,1553365335
403,gilleleje,0,DK,1553365631,82,56.12,12.31,5.94,4.1,1553365631
404,hofn,92,IS,1553365481,100,64.25,-15.21,3.04,4.12,1553365481
405,ancud,75,CL,1553364000,67,-41.87,-73.83,15.0,2.6,1553364000
406,sahibganj,0,IN,1553365646,43,25.24,87.63,19.29,3.67,1553365646
408,ossora,56,RU,1553365513,83,59.24,163.07,-10.06,5.27,1553365513
409,necochea,0,AR,1553364990,34,-38.55,-58.74,27.78,4.47,1553364990
410,igrim,32,RU,1553365646,89,63.19,64.42,-2.46,1.77,1553365646
411,saint-philippe,1,CA,1553365633,84,45.36,-73.48,-0.22,9.3,1553365633
412,lyskovo,68,RU,1553365647,92,56.03,45.04,-0.01,2.67,1553365647
414,arona,0,IT,1553365464,27,45.76,8.56,16.82,2.1,1553365464
415,togur,68,RU,1553365647,85,58.36,82.83,-6.31,1.17,1553365647
416,mankono,92,CI,1553365647,55,8.06,-6.19,31.49,1.52,1553365647
417,netrakona,0,BD,1553365648,77,24.88,90.72,17.84,1.27,1553365648
418,port augusta,92,AU,1553365169,93,-32.49,137.76,19.11,1.57,1553365169
420,buraydah,0,SA,1553360400,36,26.33,43.97,24.0,1.0,1553360400
421,boa vista,40,BR,1553364000,34,2.82,-60.67,35.0,3.6,1553364000
422,naranjal,75,PY,1553364000,52,-25.97,-55.19,31.0,1.62,1553364000
423,petropavlovsk-kamchatskiy,40,RU,1553360400,81,53.05,158.65,0.0,5.0,1553360400
424,maracaju,0,BR,1553365393,83,-21.61,-55.17,28.64,2.07,1553365393
425,whitianga,88,NZ,1553365509,98,-36.83,175.7,15.56,2.07,1553365509
426,antalaha,64,MG,1553365650,89,-14.9,50.28,26.44,4.07,1553365650
427,manaus,40,BR,1553360400,63,-3.13,-59.98,33.0,2.6,1553360400
428,toora-khem,0,RU,1553365558,73,52.47,96.11,-10.06,1.47,1553365558
431,pestravka,92,RU,1553365651,94,52.4,49.95,0.49,5.22,1553365651
432,bandarbeyla,36,SO,1553365651,100,9.49,50.81,27.24,4.22,1553365651
433,dingle,68,PH,1553365495,77,11.0,122.67,25.04,5.42,1553365495
434,sao jose da coroa grande,0,BR,1553365652,100,-8.9,-35.15,29.04,4.32,1553365652
435,port pirie,92,AU,1553364000,93,-33.18,138.01,18.0,3.22,1553364000
436,matay,92,EG,1553365652,17,28.42,30.79,28.59,8.07,1553365652
437,rabaul,56,PG,1553365652,100,-4.2,152.17,26.14,2.12,1553365652
438,newport,76,GB,1553365630,66,51.59,-3.0,9.55,4.1,1553365630
439,mgandu,44,TZ,1553365653,39,-5.96,34.11,25.84,4.92,1553365653
440,kedrovyy,0,RU,1553362200,86,56.17,91.82,-2.0,1.12,1553362200
441,la ronge,90,CA,1553364000,67,55.1,-105.3,0.0,4.6,1553364000
442,pringsewu,20,ID,1553365459,89,-5.36,104.98,23.84,1.07,1553365459
443,verkhnevilyuysk,88,RU,1553365654,69,63.45,120.31,-10.56,4.17,1553365654
444,black river,20,JM,1553364990,66,18.03,-77.85,28.93,10.3,1553364990
445,sisimiut,68,GL,1553365654,71,66.94,-53.67,-21.56,1.02,1553365654
446,axim,12,GH,1553365536,93,4.87,-2.24,29.24,4.87,1553365536
447,sioux lookout,20,CA,1553364000,28,50.1,-91.92,7.42,3.6,1553364000
448,kloulklubed,40,PW,1553363400,88,7.04,134.26,24.0,1.5,1553363400
449,souillac,0,FR,1553365629,34,45.6,-0.6,17.65,2.6,1553365629
450,ciudad bolivar,0,VE,1553365655,26,8.12,-63.55,36.79,5.57,1553365655
451,wanning,0,AT,1553365643,44,48.64,13.53,11.19,2.1,1553365643
452,terra santa,68,BR,1553365656,76,-2.1,-56.49,28.94,2.67,1553365656
453,lompoc,90,US,1553365643,87,34.64,-120.46,13.66,1.5,1553365643
454,athens,1,US,1553365442,29,34.8,-86.97,17.2,3.1,1553365442
455,beringovskiy,92,RU,1553365657,84,63.05,179.32,-13.96,9.27,1553365657
456,moron,0,VE,1553365657,50,10.49,-68.2,30.69,2.07,1553365657
457,mokolo,36,CM,1553365657,23,10.74,13.8,31.94,2.27,1553365657
458,husavik,0,CA,1553365224,65,50.56,-96.99,5.3,3.58,1553365224
459,bathsheba,20,BB,1553364000,58,13.22,-59.52,29.0,7.7,1553364000
460,kulhudhuffushi,0,MV,1553365525,100,6.62,73.07,29.19,2.32,1553365525
461,xichang,92,CN,1553365658,97,27.88,102.25,5.59,0.77,1553365658
462,wattegama,12,LK,1553365407,93,7.35,80.68,20.54,1.12,1553365407
463,isangel,92,VU,1553365658,100,-19.55,169.27,24.99,6.77,1553365658
465,cabo san lucas,5,MX,1553365518,30,22.89,-109.91,24.59,5.1,1553365518
466,payakumbuh,68,ID,1553365659,84,-0.23,100.63,22.94,1.07,1553365659
467,basco,1,US,1553365455,58,40.33,-91.2,11.78,5.7,1553365455
468,ordynskoye,36,RU,1553365659,85,54.37,81.9,-5.91,3.17,1553365659
469,noumea,44,NC,1553362200,83,-22.28,166.46,23.0,2.72,1553362200
470,port-cartier,75,CA,1553365409,68,50.03,-66.88,-0.32,4.6,1553365409
472,calama,0,CL,1553364000,13,-22.46,-68.93,24.65,12.3,1553364000
473,aswan,0,EG,1553360400,22,24.09,32.9,31.0,3.1,1553360400
474,pontianak,24,ID,1553365660,97,-0.02,109.34,26.44,3.17,1553365660
475,berndorf,0,AT,1553365661,54,47.95,16.11,12.39,1.0,1553365661
476,great yarmouth,0,GB,1553365657,61,52.61,1.73,7.46,2.1,1553365657
477,hirtshals,0,DK,1553365661,78,57.59,9.96,6.49,12.97,1553365661
478,sambava,32,MG,1553365661,100,-14.27,50.17,28.34,7.22,1553365661
479,mayahi,0,NE,1553365662,43,13.95,7.67,33.94,1.37,1553365662
480,karema,24,TZ,1553365662,95,-6.82,30.44,21.04,0.72,1553365662
481,archidona,75,EC,1553364000,100,-0.91,-77.81,25.0,0.5,1553364000
482,barabinsk,76,RU,1553365662,93,55.35,78.35,-1.46,1.62,1553365662
483,sindor,48,RU,1553365663,82,62.87,51.9,-2.51,3.87,1553365663
484,altay,0,CN,1553365663,47,47.83,88.13,-14.91,2.62,1553365663
485,jalu,8,LY,1553365663,43,29.03,21.55,21.84,6.17,1553365663
486,rocha,0,UY,1553365502,58,-34.48,-54.34,24.14,3.92,1553365502
487,shingu,0,JP,1553365663,100,33.72,135.99,8.59,6.57,1553365663
489,mulki,0,PL,1553365657,66,49.81,20.51,9.84,0.5,1553365657
490,dalvik,0,SE,1553365504,69,57.79,14.13,4.15,6.7,1553365504
491,humboldt,0,CA,1553365407,100,52.21,-105.12,6.99,4.32,1553365407
492,chifeng,0,CN,1553365664,63,42.27,118.96,-3.61,3.77,1553365664
493,soverato,0,IT,1553363400,82,38.69,16.55,13.53,1.0,1553363400
494,roswell,1,US,1553365588,18,33.39,-104.52,19.83,2.1,1553365588
495,dubna,0,RU,1553365665,77,56.76,37.14,-3.81,2.67,1553365665
496,turukhansk,88,RU,1553365562,88,65.8,87.96,-6.91,1.42,1553365562
498,manacapuru,76,BR,1553365666,79,-3.3,-60.62,29.69,2.57,1553365666
499,altus,1,US,1553364995,43,34.64,-99.33,21.06,4.6,1553364995
501,nago,0,IT,1553365649,31,45.88,10.89,14.64,1.0,1553365649
502,nucsoara,0,RO,1553365539,23,45.33,24.78,11.67,0.77,1553365539
503,chapais,1,CA,1553364000,35,49.78,-74.86,-5.0,4.6,1553364000
504,afua,32,NG,1553365667,85,5.27,7.87,26.54,2.57,1553365667
505,kamina,36,CD,1553365667,90,-8.74,25.0,21.99,1.97,1553365667
506,bosaso,0,SO,1553365667,100,11.28,49.18,25.74,0.62,1553365667
507,grindavik,90,IS,1553364998,100,63.84,-22.43,2.7,7.2,1553364998
510,manggar,12,ID,1553365668,100,-2.88,108.27,24.74,1.47,1553365668
511,avera,1,US,1553365461,28,33.19,-82.53,19.51,4.1,1553365461
512,kaseda,75,JP,1553365394,53,31.42,130.32,8.25,1.0,1553365394
513,khakhea,36,BW,1553365669,30,-24.69,23.5,27.74,3.32,1553365669
514,ahipara,64,NZ,1553365469,100,-35.17,173.16,15.94,1.07,1553365469
515,agadez,0,NE,1553360400,19,16.97,7.99,36.0,4.1,1553360400
517,chumikan,0,RU,1553365382,53,54.72,135.31,-13.91,3.47,1553365382
518,pitea,0,SE,1553365573,51,65.32,21.48,4.25,6.2,1553365573
519,byron bay,0,AU,1553365635,88,-28.65,153.62,21.72,3.6,1553365635
520,morant bay,20,JM,1553364000,62,17.88,-76.41,29.0,6.2,1553364000
522,port said,32,EG,1553365670,13,25.34,30.55,33.09,5.27,1553365670
523,padang,24,ID,1553365662,100,-0.92,100.36,25.84,1.77,1553365662
524,miri,12,NG,1553365545,21,10.31,9.75,31.69,3.77,1553365545
525,aden,20,YE,1553365512,95,12.79,45.03,26.69,8.62,1553365512
527,kango,76,GA,1553365671,96,0.19,10.1,23.74,1.32,1553365671
529,mehtar lam,1,AF,1553360100,55,34.67,70.21,16.0,2.1,1553360100
530,nisia floresta,40,BR,1553364000,62,-6.09,-35.21,30.95,3.1,1553364000
532,nadym,92,RU,1553365411,93,65.53,72.51,-1.81,3.12,1553365411
533,santa rosa,0,AR,1553365674,44,-36.62,-64.29,27.84,4.07,1553365674
534,rockhampton,0,AU,1553362200,88,-23.38,150.51,22.0,1.0,1553362200
535,egvekinot,88,RU,1553365674,65,66.32,-179.17,-18.61,2.32,1553365674
536,palmaner,0,IN,1553365675,50,13.2,78.75,24.19,3.02,1553365675
537,port-gentil,40,GA,1553364000,83,-0.72,8.78,29.0,3.1,1553364000
538,izumo,75,JP,1553360400,80,35.37,132.75,4.0,3.6,1553360400
539,abu dhabi,88,AE,1553360400,40,24.47,54.37,30.0,4.1,1553360400
540,khasan,0,RU,1553365676,100,42.43,130.64,-4.36,3.77,1553365676
541,moosomin,8,CA,1553365676,95,50.14,-101.67,4.04,1.77,1553365676
542,shuangyang,76,CN,1553365676,80,25.0,118.61,10.34,6.02,1553365676
543,beaverlodge,75,CA,1553364000,69,55.21,-119.43,3.0,2.6,1553364000
544,half moon bay,20,US,1553365516,76,37.46,-122.43,13.86,3.6,1553365516
545,ternate,40,PH,1553365033,69,14.29,120.72,26.63,4.1,1553365033
546,paso de carrasco,75,UY,1553364983,44,-34.86,-56.05,23.62,3.1,1553364983
547,namatanai,68,PG,1553365677,100,-3.66,152.44,27.49,4.47,1553365677
548,zambezi,0,ZM,1553365677,49,-13.55,23.12,24.84,3.92,1553365677
549,nabire,68,ID,1553365678,96,-3.36,135.5,20.59,0.62,1553365678
550,jacareacanga,44,BR,1553365678,71,-6.22,-57.76,30.59,1.22,1553365678
551,pochutla,20,MX,1553364927,55,15.74,-96.47,30.87,6.2,1553364927
552,gostilitsy,90,RU,1553365441,86,59.75,29.62,2.37,4.0,1553365441
553,zhigansk,68,RU,1553365580,78,66.77,123.37,-12.91,2.87,1553365580
554,troitskoye,0,RU,1553365679,73,52.98,84.68,-7.41,1.12,1553365679
556,praya,75,ID,1553364000,100,-8.71,116.27,24.0,4.1,1553364000
557,bronte,20,IT,1553365571,100,37.79,14.83,12.54,2.1,1553365571
558,havre-saint-pierre,90,CA,1553365020,86,50.23,-63.6,-2.0,10.3,1553365020
559,lumeje,0,AO,1553365680,29,-11.56,20.78,27.84,3.82,1553365680
561,omsukchan,0,RU,1553365680,36,62.53,155.8,-25.01,1.12,1553365680
562,fuxin,0,CN,1553365680,30,42.02,121.65,1.69,5.27,1553365680
563,nouadhibou,20,MR,1553364000,77,20.93,-17.03,20.0,8.2,1553364000
564,tahoua,0,NE,1553364000,9,14.89,5.26,36.0,4.1,1553364000
565,vancouver,90,US,1553365521,76,45.63,-122.67,10.73,1.5,1553365521
566,adrar,0,DZ,1553364000,15,27.87,-0.29,26.0,5.1,1553364000
568,chicama,0,PE,1553364000,78,-7.84,-79.15,22.0,5.7,1553364000
569,constantine,40,DZ,1553364000,76,36.36,6.61,12.0,2.6,1553364000
570,prince rupert,90,CA,1553364000,61,54.32,-130.32,10.0,3.6,1553364000
571,mount pleasant,90,US,1553365259,60,33.16,-94.97,21.25,3.1,1553365259
572,alghero,0,IT,1553363400,58,40.56,8.32,14.0,3.1,1553363400
573,nakhon phanom,12,LA,1553365684,70,17.4,104.79,23.54,2.97,1553365684
574,king city,40,US,1553365214,76,36.21,-121.13,12.86,3.1,1553365214
575,zaragoza,0,ES,1553365516,21,41.65,-0.88,18.97,3.6,1553365516
576,glendive,1,US,1553364900,75,47.11,-104.71,5.91,2.12,1553364900
577,luorong,80,CN,1553365685,97,24.41,109.6,8.84,4.12,1553365685
578,meadow lake,5,CA,1553364000,77,54.13,-108.44,5.0,1.5,1553364000
579,baghdad,40,IQ,1553360400,52,33.3,44.38,19.0,3.6,1553360400
580,tutoia,40,BR,1553360400,52,-2.76,-42.27,32.0,4.6,1553360400
581,talcahuano,20,CL,1553364000,68,-36.72,-73.12,21.0,7.7,1553364000
582,qasigiannguit,75,GL,1553363400,39,68.82,-51.19,-21.0,5.7,1553363400
583,shubarshi,48,KZ,1553365686,77,48.59,57.19,1.44,1.27,1553365686
585,marshall,1,US,1553365657,32,39.39,-87.69,10.42,3.1,1553365657
586,kamaishi,0,JP,1553365390,84,39.28,141.86,-5.21,0.77,1553365390
587,mabayo,40,PH,1553360400,78,14.73,120.28,25.61,1.5,1553360400
588,parvatipuram,0,IN,1553365687,93,18.78,83.43,19.94,1.17,1553365687
589,pimentel,48,BR,1553365687,77,-3.7,-45.5,29.54,2.12,1553365687
590,mumbwa,44,ZM,1553365687,49,-14.99,27.06,24.09,4.12,1553365687
591,sarapulka,0,RU,1553362200,92,56.87,61.06,-3.0,1.0,1553362200
592,pedernales,80,EC,1553365688,70,0.07,-80.05,30.09,1.97,1553365688
593,taseyevo,8,RU,1553365564,81,57.22,94.9,-7.31,1.17,1553365564
594,saint anthony,90,US,1553365532,86,43.97,-111.68,5.1,2.1,1553365532
595,tonota,0,BW,1553364000,53,-21.44,27.46,23.0,3.1,1553364000
596,sola,40,NO,1553365504,81,58.89,5.65,5.52,8.7,1553365504
597,saint-georges,88,CA,1553365033,78,46.12,-70.67,-1.13,4.47,1553365033
598,kailua,90,US,1553365456,73,21.39,-157.74,21.36,4.1,1553365456
599,gunjur,0,GM,1553364000,64,13.18,-16.76,24.0,6.2,1553364000
600,kalmunai,0,LK,1553365690,94,7.42,81.82,23.89,1.22,1553365690
601,namibe,24,AO,1553365529,100,-15.19,12.15,25.69,3.02,1553365529
602,saldanha,24,PT,1553365690,29,41.42,-6.55,18.19,3.87,1553365690
603,pokosnoye,44,RU,1553365690,81,55.53,101.05,-4.66,2.02,1553365690
604,biak,44,ID,1553365691,97,-0.91,122.88,26.34,1.42,1553365691
605,hambantota,8,LK,1553365691,100,6.12,81.12,26.24,1.87,1553365691
606,cam ranh,40,VN,1553362200,83,11.92,109.15,29.0,2.6,1553362200
607,yulara,56,AU,1553364000,36,-25.24,130.99,27.0,4.6,1553364000
608,khatassy,40,RU,1553362200,60,61.91,129.64,-12.0,4.0,1553362200
609,krasnohrad,48,UA,1553365692,72,49.38,35.45,3.34,5.82,1553365692
610,khandagayty,0,MN,1553365692,54,50.73,92.07,-13.11,1.07,1553365692
611,khandyga,8,RU,1553365692,43,62.65,135.58,-26.16,1.07,1553365692
612,joao camara,40,BR,1553364000,74,-5.54,-35.82,30.0,3.1,1553364000
613,caconda,92,AO,1553365693,70,-13.73,15.06,19.99,2.17,1553365693
614,lucapa,24,AO,1553365693,92,-8.42,20.74,22.59,1.12,1553365693
615,hirado,0,JP,1553365555,44,33.32,129.49,7.85,2.68,1553365555
616,chippewa falls,1,US,1553365517,42,44.94,-91.39,7.57,1.5,1553365517
